Location,Latitude,Longitude,,,,,
Aberdeen 66_11kV FY2021.csv,-32.16282357,150.8932994,-27.57808033,153.0390369,,138,202
Adamstown 132_11kV FY2021.csv,-32.93840909,151.7299452,-27.35069891,152.9668968,,,
Argenton 132_11kV FY2021.csv,-32.94011708,151.6264912,-26.67265792,153.0941046,,,
Arncliffe 33_11kV FY2021.csv,,,-27.59896962,153.0312798,,,
Auburn 33_11kV FY2021.csv,-33.8442942,151.0424502,-26.35744411,152.7026004,,,
Avoca 66_11kV FY2021.csv,-33.45741622,151.4134745,-27.64018968,152.6875495,,,
Avondale 33_11kV FY2021.csv,-33.07208186,151.4749114,-27.46504103,153.0280327,,,
Baerami 33_11kV FY2021.csv,,,-27.51086201,153.0314222,,,
Balgowlah North 132_11kV FY2021.csv,,,-27.39638207,152.9616753,,,
Bankstown 132_11kV FY2021.csv,-33.93765958,151.0390076,-27.55751725,153.0084287,,,
Bass Hill 33_11kV FY2021.csv,-33.9125662,151.0044121,-27.94549878,153.3681313,,,
Beacon Hill 33_11kV FY2021.csv,,,-27.44609254,152.9924916,,,
Belmore Park 132_11kV FY2021.csv,-33.8801768,151.2074311,-27.46297799,153.026122,,,
Belrose 33_11kV FY2021.csv,-33.72610787,151.2086481,-27.32850374,153.0155219,,,
Berkeley Vale 132_11kV FY2021.csv,-33.32940313,151.4209237,0,0,,,
Berowra 132_11kV FY2021.csv,-33.63142819,151.1461596,-27.98323158,153.0004214,,,
Blackwattle Bay 33_5kV FY2021.csv,-33.87060072,151.1934089,-27.71286912,153.1886839,,,
Blakehurst 33_11kV FY2021.csv,-33.97701503,151.1150059,-27.72484807,153.2083131,,,
Botany 33_11kV FY2021.csv,-33.9476209,151.204423,-26.85369602,152.9277682,,,
Brandy Hill 132_11kV FY2021.csv,-32.66996265,151.7036791,-27.53583581,153.1146956,,,
Branxton 66_11kV FY2021.csv,-32.65972433,151.3446045,-27.69875339,153.1565536,,,
Broadmeadow 33_11kV FY2021.csv,-32.91290066,151.7319726,-27.50853608,153.2210057,,,
Broadmeadow 132_11kV FY2021.csv,-32.91871469,151.7317516,-26.74979933,153.1138341,,,
Brookvale 33_11kV FY2021.csv,-33.76235723,151.2741769,-26.4078543,152.8623835,,,
Burwood 132_11kV FY2021.csv,-33.86718007,151.0982116,-28.00443923,152.6768732,,,
Campbell St 132_11kV FY2021.csv,-33.87998254,151.2114751,-27.61716942,152.7891369,,,
Camperdown 33_5kV FY2021.csv,-33.88590669,151.1775317,-27.32589535,152.9709674,,,
Camperdown 33_11kV FY2021.csv,-33.88590669,151.1775317,-27.06350823,153.1539331,,,
Campsie 33_11kV FY2021.csv,-33.91881317,151.104363,-27.30272409,153.0596605,,,
Cardiff 33_11kV FY2021.csv,-32.9419363,151.6534375,-28.02599112,153.4296832,,,
Careel Bay 33_11kV FY2021.csv,-33.62246757,151.3197927,-27.99387853,152.9287748,,,
Caringbah 33_11kV FY2021.csv,-34.0428994,151.1271309,-27.66187495,153.0377924,,,
Carrington 33_11kV FY2021.csv,-32.90760763,151.7606372,-27.44946429,153.0659819,,,
Castle Cove 132_11kV FY2021.csv,-33.78991129,151.2014605,-27.99428486,153.4131409,,,
Cessnock 33_11kV FY2021.csv,-32.83899888,151.3524958,-27.59405946,152.8181629,,,
Cessnock South 33_11kV FY2021.csv,-32.83899888,151.3524958,-27.49629058,153.0329841,,,
Charlestown 132_11kV FY2021.csv,-32.95888779,151.6939126,-28.1026121,153.4361772,,,
Charmhaven 132_11kV FY2021.csv,-33.24482225,151.4922205,-27.1702479,152.9807706,,,
Chatswood 33_11kV FY2021.csv,-33.80516967,151.180784,-27.08113721,152.9344661,,,
City Central 132_11kV FY2021.csv,-33.87218767,151.203625,-27.06560745,152.9627593,,,
City East 33_11kV FY2021.csv,-33.86694893,151.2189159,-27.90431597,153.3115187,,,
City East 132_11kV FY2021.csv,-33.86694893,151.2189159,-27.61515955,153.0508177,,,
City North 33_11kV FY2021.csv,-33.86723584,151.203335,-26.80034188,153.1309044,,,
City North 132_11kV FY2021.csv,-33.86723584,151.203335,-27.49065254,153.0790933,,,
City South 132_11kV FY2021.csv,,,-27.52981592,153.2014588,,,
Clovelly 132_11kV FY2021.csv,-33.90892699,151.2479792,-27.52200507,153.1909945,,,
Concord 33_11kV FY2021.csv,-33.85092777,151.0845746,-27.62275639,152.9324608,,,
Cronulla 132_11kV FY2021.csv,-34.05067203,151.1462726,-27.61939869,152.9168491,,,
Croudace Bay 33_11kV FY2021.csv,,,-27.59978783,152.134465,,,
Crows Nest 33_11kV FY2021.csv,-33.82399472,151.1993686,-27.4711682,153.0288933,,,
Crows Nest 132_11kV FY2021.csv,-33.82399472,151.1993686,-27.38629783,153.0363788,,,
Croydon 132_11kV FY2021.csv,-33.8775134,151.1220152,-27.42355028,153.047146,,,
Dalley St 132_11kV FY2021.csv,-33.86208366,151.2082075,-27.54644953,153.2531601,,,
Darling Harbour 132_11kV FY2021.csv,,,-26.53639293,153.0824448,,,
Darlinghurst 33_11kV FY2021.csv,-33.8800155,151.2171704,-27.8552817,153.2937184,,,
Dee Why West 33_11kV FY2021.csv,,,-27.37184783,152.5153493,,,
Denman 66_11kV FY2021.csv,,,-27.63637182,152.8206317,,,
Double Bay 132_11kV FY2021.csv,-33.88349823,151.2466568,-27.57910455,153.0261365,,,
Drummoyne 132_11kV FY2021.csv,-33.85556074,151.1347959,-26.34508724,152.8642266,,,
Dulwich Hill 33_11kV FY2021.csv,-33.89695015,151.1359138,-26.43343222,152.9231796,,,
Edgeworth 33_11kV FY2021.csv,,,-27.49371379,153.057712,,,
Empire Bay 66_11kV FY2021.csv,-33.50773866,151.3730431,-27.66364627,153.214702,,,
Enfield 33_11kV FY2021.csv,-33.89319024,151.0893718,-27.67766365,153.078585,,,
Engadine 33_11kV FY2021.csv,-34.0715483,151.0117001,-26.76827154,153.1171737,,,
Engadine 132_11kV FY2021.csv,-34.0715483,151.0117001,-28.14209259,153.4749487,,,
Epping 66_11kV FY2021.csv,-33.77176056,151.0957726,-27.57424123,152.9522768,,,
Erina 66_11kV FY2021.csv,-33.43762772,151.3767305,-27.19138045,153.0173317,,,
Five Dock 33_11kV FY2021.csv,-33.87407632,151.1260011,-27.44734661,153.1109043,,,
Flemington 132_11kV FY2021.csv,-33.85363082,151.0617479,-27.24129305,153.0832009,,,
Galston 132_11kV FY2021.csv,,,-27.57550355,153.0935636,,,
Gateshead 33_11kV FY2021.csv,-32.98975546,151.6954637,0,0,,,
Gore Hill 33_11kV FY2021.csv,-33.81689858,151.1854817,-27.41932859,152.9908872,,,
Graving Dock No 1 33_11kV FY2021.csv,,,-27.23402605,152.4201972,,,
Graving Dock No 2 33_11kV FY2021.csv,,,-26.48244831,152.9443544,,,
Green Square 132_11kV FY2021.csv,-33.91228459,151.1944115,-27.37926408,153.1718534,,,
Greenacre 132_11kV FY2021.csv,-33.90444664,151.0407427,-27.39390068,153.1650226,,,
Greenacre Park 132_11kV FY2021.csv,,,-27.79510997,152.7094354,,,
Gwawley Bay 33_11kV FY2021.csv,-34.0218779,151.1040213,-27.57275309,152.283598,,,
Gwawley Bay 132_11kV FY2021.csv,-34.0218779,151.1040213,-27.9523614,153.3403834,,,
Harbord 33_11kV FY2021.csv,,,-27.33055291,153.0501792,,,
Homebush Bay 132_11kV FY2021.csv,-33.83304182,151.0732881,-27.43673371,153.1250732,,,
Hornsby 132_11kV FY2021.csv,,,-27.52942436,152.4071281,,,
Hunters Hill 66_11kV FY2021.csv,-33.82821071,151.1294613,-27.6209498,152.8781333,,,
Hurstville North 33_11kV FY2021.csv,-33.95500016,151.0954451,-26.10003632,152.7455393,,,
Hurstville North 132_11kV FY2021.csv,,,0,0,,,
Jannali 33_11kV FY2021.csv,-34.02271236,151.0649113,-27.41157987,152.9612235,,,
Jesmond 132_11kV FY2021.csv,-32.8989531,151.6848826,-26.18148888,152.650149,,,
Jewells 33_11kV FY2021.csv,,,-26.22044528,152.696147,,,
Killarney 33_11kV FY2021.csv,,,-26.1963859,152.6816566,,,
Kingsford 132_11kV FY2021.csv,-33.9267705,151.22974,-27.4346946,153.0848473,,,
Kirrawee 132_11kV FY2021.csv,,,-27.4393212,153.0628461,,,
Kogarah 132_11kV FY2021.csv,-33.9680435,151.1276437,-27.64248735,152.9800147,,,
Kotara 33_11kV FY2021.csv,-32.93817786,151.7122737,-27.54655153,152.128552,,,
Kurnell South 132_11kV FY2021.csv,,,-27.45190117,153.12668,,,
Kurri 132_11kV FY2021.csv,-32.80609786,151.5000784,-27.42020611,153.0644466,,,
Lake Munmorah 132_11kV FY2021.csv,,,-27.5231379,153.0774941,,,
Leichhardt 33_11kV FY2021.csv,-33.88138537,151.1594797,-27.5154759,153.056109,,,
Leichhardt 132_11kV FY2021.csv,-33.88138537,151.1594797,-27.90615243,153.3883944,,,
Leightonfield 33_11kV FY2021.csv,-33.8820739,150.9915193,-27.87920396,153.3603529,,,
Lemington 66_11kV FY2021.csv,,,-27.61587594,153.4389413,,,
Lidcombe 33_11kV FY2021.csv,-33.85696981,151.0371685,-26.46417346,152.6549139,,,
Lindfield 33_11kV FY2021.csv,-33.77395361,151.166468,-27.5957495,152.9702451,,,
Lisarow 33_11kV FY2021.csv,-33.38519055,151.3714437,-27.49899848,152.9740185,,,
Long Jetty 66_11kV FY2021.csv,-33.36961613,151.4736943,-28.1696003,152.9092251,,,
Lucas Heights 33_11kV FY2021.csv,,,-27.63870002,152.7609059,,,
Macquarie Park 132_11kV FY2021.csv,-33.77151623,151.1137388,-27.80911279,153.0444367,,,
Maitland 33_11kV FY2021.csv,-32.72887015,151.5510513,-27.53515951,152.9355386,,,
Manly 33_11kV FY2021.csv,,,-27.94214699,152.6483581,,,
Maroubra 132_11kV FY2021.csv,-33.93954532,151.2373802,-27.25122472,152.9938612,,,
Marrickville 132_11kV FY2021.csv,-33.91243713,151.1543752,-27.59550267,152.6918211,,,
Maryland 132_11kV FY2021.csv,,,-26.72029552,153.1290905,,,
Mascot 33_11kV FY2021.csv,-33.92112797,151.1910868,-27.41293675,153.0331719,,,
Matraville 33_11kV FY2021.csv,-33.96228144,151.2377501,-27.45428711,153.012317,,,
Mayfield West 132_11kV FY2021.csv,-32.89232301,151.7225684,-26.60372334,152.7482327,,,
Meadowbank 132_11kV FY2021.csv,-33.81357599,151.0935826,-27.50657857,152.937796,,,
Medowie 33_11kV FY2021.csv,,,-26.93771918,152.5815297,,,
Menai 132_11kV FY2021.csv,-34.01490002,151.0108487,-27.67678213,153.1207128,,,
Merriwa 33_11kV FY2021.csv,,,-28.17370728,153.5302121,,,
Metford 33_11kV FY2021.csv,-32.76274437,151.5986471,-27.93879645,153.3990897,,,
Milperra 132_11kV FY2021.csv,-33.93811584,150.9990199,-27.6488577,152.3890915,,,
Miranda 33_11kV FY2021.csv,-34.02856054,151.0930726,-26.80803594,152.970084,,,
Mitchell Line 66_11kV FY2021.csv,,,-27.28618045,152.9732453,,,
Mitchells Flat 66_11kV FY2021.csv,,,-27.49963729,152.4523789,,,
Mona Vale 33_11kV FY2021.csv,,,-27.77002088,153.1093152,,,
Moonan 33_11kV FY2021.csv,,,-27.67662655,153.1856858,,,
Morisset 132_11kV FY2021.csv,,,-27.66417123,153.1316754,,,
Mortdale 33_11kV FY2021.csv,-33.97119087,151.0728882,-27.4664275,153.1769997,,,
Mosman 132_11kV FY2021.csv,-33.82581037,151.2396258,-27.45830947,152.5891146,,,
Mt Hutton 33_11kV FY2021.csv,-32.98499146,151.6619499,-27.43439178,153.1425171,,,
Mt Thorley 66_11kV FY2021.csv,,,-27.41637214,153.1543868,,,
Muswellbrook 33_11kV FY2021.csv,,,-27.46739492,153.0182841,,,
Narrabeen 33_11kV FY2021.csv,,,-26.76178256,152.8558235,,,
Nelson Bay 33_11kV FY2021.csv,,,0,0,,,
New Lambton 33_11kV FY2021.csv,,,-27.23886545,153.0270427,,,
Newcastle CBD 33_11kV FY2021.csv,-32.92981346,151.7754085,-27.56549668,152.5937604,,,
Newdell 66_11kV FY2021.csv,,,-27.45840086,153.0357977,,,
Newport 33_11kV FY2021.csv,,,-27.43052273,153.1121385,,,
Noraville 33_11kV FY2021.csv,,,-28.03519126,153.4073434,,,
North Head 33_11kV FY2021.csv,,,-28.06354282,153.4358864,,,
North Sydney 33_11kV FY2021.csv,-33.83655085,151.2086085,-27.46667076,153.0089474,,,
North Sydney 132_11kV FY2021.csv,-33.83655085,151.2086085,-27.53842339,152.8972092,,,
Nulkaba 33_11kV FY2021.csv,-32.80600715,151.3452264,-27.97853558,153.3607886,,,
Olympic Park 132_11kV FY2021.csv,-33.84967858,151.0749139,-26.70893796,153.0689736,,,
Paddington 33_11kV FY2021.csv,-33.88468839,151.2255157,-27.52682507,153.0224506,,,
Paxton 33_11kV FY2021.csv,-32.90008424,151.2769543,-27.09786419,152.9518827,,,
Peats Ridge 33_11kV FY2021.csv,-33.37409104,151.230771,-27.1342249,152.9594604,,,
Pelican 33_11kV FY2021.csv,-33.06323441,151.6525702,-27.61977232,153.2347819,,,
Pennant Hills 132_11kV FY2021.csv,,,-27.53728178,152.7936233,,,
Port Botany 33_11kV FY2021.csv,-33.96499965,151.2188427,-27.54329799,153.0810852,,,
Potts Hill 132_11kV FY2021.csv,-33.88809667,151.0422127,-27.72119761,152.2196118,,,
Punchbowl 33_11kV FY2021.csv,,,-27.9029542,153.1127635,,,
Pymble 33_11kV FY2021.csv,,,0,0,,,
Rathmines 132_11kV FY2021.csv,-33.03316941,151.561717,-28.08307685,153.3525601,,,
Raymond Terr NEW 33_11kV FY2021.csv,,,-27.46038665,153.1052518,,,
Revesby 132_11kV FY2021.csv,-33.95309676,151.0121909,-27.23746768,152.4985924,,,
Riverwood 33_11kV FY2021.csv,,,-27.40273939,153.1303293,,,
RNS Hospital 132_11kV FY2021.csv,,,-26.61570712,152.9609089,,,
Rockdale 33_11kV FY2021.csv,-33.95252192,151.1500726,-27.20405198,152.9856476,,,
Rockdale 132_11kV FY2021.csv,-33.95252192,151.1500726,-28.00731456,153.3386909,,,
Rose Bay 33_11kV FY2021.csv,-33.87802734,151.2714509,-27.43582685,153.0136521,,,
Rose Bay 132_11kV FY2021.csv,-33.87802734,151.2714509,-27.45060894,153.0478094,,,
Rothbury 132_11kV FY2021.csv,,,-27.07094109,153.0574077,,,
Rouchel 33_11kV FY2021.csv,,,-26.40843722,153.0487627,,,
Rutherford 33_11kV FY2021.csv,-32.71642745,151.5164457,-27.74454506,152.986113,,,
Sans Souci 33_11kV FY2021.csv,-33.99356405,151.1390895,-27.61547812,153.1211834,,,
Scone 66_11kV FY2021.csv,,,-27.59538807,152.7585621,,,
Sefton 132_11kV FY2021.csv,-33.88749434,151.0185873,-27.26597939,152.9418071,,,
Singleton 66_11kV FY2021.csv,-32.54422117,151.1490017,-27.38973758,153.0830311,,,
Singleton North 66_11kV FY2021.csv,-32.56777669,151.1784159,-27.39702838,153.0614048,,,
Somersby 132_11kV FY2021.csv,,,0,0,,,
St Ives 33_11kV FY2021.csv,,,-28.1321933,153.4729264,,,
St Peters 132_11kV FY2021.csv,-33.90659861,151.1832037,-26.6893257,152.9503828,,,
Stockton 33_11kV FY2021.csv,,,-27.95805842,153.3833248,,,
Strathfield South 132_11kV FY2021.csv,-33.86709838,151.088928,-26.48280219,153.0599781,,,
Summer Hill 33_11kV FY2021.csv,,,-27.81110021,153.3355666,,,
Surry Hills 33_11kV FY2021.csv,-33.89085499,151.2099852,-27.53322928,152.0663258,,,
Swansea 33_11kV FY2021.csv,-33.09737644,151.6381924,-27.45704515,153.0877014,,,
Tanilba Bay 33_11kV FY2021.csv,,,-27.52279701,153.2578625,,,
Tarro 33_11kV FY2021.csv,-32.8100654,151.6692445,0,0,,,
Telarah 33_11kV FY2021.csv,-32.73205238,151.5395886,-27.59821259,152.8720634,,,
Terrey Hills 33_11kV FY2021.csv,,,-27.23020386,153.1077688,,,
Thornton 33_11kV FY2021.csv,-32.76880589,151.6318527,-27.61663275,153.2910386,,,
Tighes Hill 33_11kV FY2021.csv,,,-28.06962016,153.3765351,,,
Tomago 33_11kV FY2021.csv,-32.81513362,151.7647157,-27.54325127,153.019985,,,
Tomalpin 33_11kV FY2021.csv,-32.83581374,151.4511012,-27.6183427,152.7616738,,,
Tomaree 33_11kV FY2021.csv,,,-27.67016519,152.5951706,,,
Top Ryde 132_11kV FY2021.csv,-33.81175982,151.113765,-27.59503172,153.0749326,,,
Toronto 33_11kV FY2021.csv,-33.00897378,151.5782834,-27.66593168,153.3847723,,,
Toronto West 132_11kV FY2021.csv,,,-27.54552662,153.0323199,,,
Turramurra 33_11kV FY2021.csv,,,-27.37802689,152.8749359,,,
Umina 66_11kV FY2021.csv,-33.51877635,151.3070179,-27.33055291,153.0501792,,,
Vales Point 33_11kV FY2021.csv,,,-27.21453791,153.104023,,,
Wamberal 66_11kV FY2021.csv,-33.42946587,151.4314991,-27.50751963,153.1154979,,,
Wamberal 132_11kV FY2021.csv,-33.42946587,151.4314991,-27.52968595,152.9806516,,,
Waverley 33_11kV FY2021.csv,-33.89165048,151.2604902,-27.11532845,152.5539456,,,
Waverley 132_11kV FY2021.csv,-33.89165048,151.2604902,-27.97319751,153.4098591,,,
West Gosford 132_11kV FY2021.csv,-33.42047183,151.3311205,-27.48097277,152.3218785,,,
Williamtown 33_11kV FY2021.csv,,,-27.67270768,152.8967358,,,
Woy Woy 66_11kV FY2021.csv,-33.49709331,151.3006148,-27.68704919,152.9078115,,,
Wyong 132_11kV FY2021.csv,,,-27.49942234,153.0114772,,,
Zetland 132_11kV FY2021.csv,-33.90284626,151.2042484,-27.39894424,153.0094798,,,
