Location,Latitude,Longitude
Amberley_EGX_20202021.csv,-27.57808033,153.0390369
Ann St_EGX_20202021.csv,-27.35069891,152.9668968
Annerley_EGX_20202021.csv,-26.67265792,153.0941046
Arana Hills_EGX_20202021.csv,-27.59896962,153.0312798
Archerfield_EGX_20202021.csv,-26.35744411,152.7026004
Arundel_EGX_20202021.csv,-27.64018968,152.6875495
Ashgrove_EGX_20202021.csv,-27.46504103,153.0280327
Astor Terrace_EGX_20202021.csv,-27.51086201,153.0314222
Bald Hills Bus 1_EGX_20202021.csv,-27.39638207,152.9616753
Bald Hills Bus 2_EGX_20202021.csv,-27.55751725,153.0084287
Beaudesert_EGX_20202021.csv,-27.94549878,153.3681313
Beenleigh North_EGX_20202021.csv,-27.44609254,152.9924916
Beenleigh_EGX_20202021.csv,-27.46297799,153.026122
Beerwah_EGX_20202021.csv,-27.32850374,153.0155219
Belmont_EGX_20202021.csv,0,0
Bethania_EGX_20202021.csv,-27.98323158,153.0004214
Birkdale_EGX_20202021.csv,-27.71286912,153.1886839
Birtinya_EGX_20202021.csv,-27.72484807,153.2083131
Black Mountain_EGX_20202021.csv,-26.85369602,152.9277682
Boonah_EGX_20202021.csv,-27.53583581,153.1146956
Booval_EGX_20202021.csv,-27.69875339,153.1565536
Brendale_EGX_20202021.csv,-27.50853608,153.2210057
Bribie Island_EGX_20202021.csv,-26.74979933,153.1138341
Brighton_EGX_20202021.csv,-26.4078543,152.8623835
Broadbeach_EGX_20202021.csv,-28.00443923,152.6768732
Bromelton_EGX_20202021.csv,-27.61716942,152.7891369
Browns Plains_EGX_20202021.csv,-27.32589535,152.9709674
Bulimba_EGX_20202021.csv,-27.06350823,153.1539331
Bundall_EGX_20202021.csv,-27.30272409,153.0596605
Bundamba_EGX_20202021.csv,-28.02599112,153.4296832
Buranda_EGX_20202021.csv,-27.99387853,152.9287748
Burleigh Heads_EGX_20202021.csv,-27.66187495,153.0377924
Burpengary_EGX_20202021.csv,-27.44946429,153.0659819
Caboolture West_EGX_20202021.csv,-27.99428486,153.4131409
Caboolture_EGX_20202021.csv,-27.59405946,152.8181629
Cades County_EGX_20202021.csv,-27.49629058,153.0329841
Calamvale_EGX_20202021.csv,-28.1026121,153.4361772
Caloundra_EGX_20202021.csv,-27.1702479,152.9807706
Camp Hill_EGX_20202021.csv,-27.08113721,152.9344661
Capalaba South_EGX_20202021.csv,-27.06560745,152.9627593
Capalaba_EGX_20202021.csv,-27.90431597,153.3115187
Carole Park Central_EGX_20202021.csv,-27.61515955,153.0508177
Carole Park_EGX_20202021.csv,-26.80034188,153.1309044
Carpendale_EGX_20202021.csv,-27.49065254,153.0790933
Charlotte St_EGX_20202021.csv,-27.52981592,153.2014588
Chermside_EGX_20202021.csv,-27.52200507,153.1909945
Clayfield_EGX_20202021.csv,-27.62275639,152.9324608
Cleveland_EGX_20202021.csv,-27.61939869,152.9168491
Coolum_EGX_20202021.csv,-27.59978783,152.134465
Coomera_EGX_20202021.csv,-27.4711682,153.0288933
Coominya_EGX_20202021.csv,-27.38629783,153.0363788
Cooneana_EGX_20202021.csv,-27.42355028,153.047146
Coopers Plains_EGX_20202021.csv,-27.54644953,153.2531601
Cooran_EGX_20202021.csv,-26.53639293,153.0824448
Cooroy_EGX_20202021.csv,-27.8552817,153.2937184
Coorparoo_EGX_20202021.csv,-27.37184783,152.5153493
Cornubia_EGX_20202021.csv,-27.63637182,152.8206317
Crestmead_EGX_20202021.csv,-27.57910455,153.0261365
Currimundi_EGX_20202021.csv,-26.34508724,152.8642266
Currumbin_EGX_20202021.csv,-26.43343222,152.9231796
Darra_EGX_20202021.csv,-27.49371379,153.057712
Deception Bay_EGX_20202021.csv,-27.66364627,153.214702
Doboy_EGX_20202021.csv,-27.67766365,153.078585
Duffield Road_EGX_20202021.csv,-26.76827154,153.1171737
Eight Mile Plains Bus 1_EGX_20202021.csv,-28.14209259,153.4749487
Eight Mile Plains Bus 2_EGX_20202021.csv,-27.57424123,152.9522768
Enoggera_EGX_20202021.csv,-27.19138045,153.0173317
Esk_EGX_20202021.csv,-27.44734661,153.1109043
Eumundi_EGX_20202021.csv,-27.24129305,153.0832009
Fisherman Is A_EGX_20202021.csv,-27.57550355,153.0935636
Fisherman Is B_EGX_20202021.csv,0,0
Flinders_EGX_20202021.csv,-27.41932859,152.9908872
Gatton A_EGX_20202021.csv,-27.23402605,152.4201972
Gaven_EGX_20202021.csv,-26.48244831,152.9443544
Geebung_EGX_20202021.csv,-27.37926408,153.1718534
Gibson Island_EGX_20202021.csv,-27.39390068,153.1650226
Glenore Grove_EGX_20202021.csv,-27.79510997,152.7094354
Goodna_EGX_20202021.csv,-27.57275309,152.283598
Goomboorian_EGX_20202021.csv,-27.9523614,153.3403834
Grantham_EGX_20202021.csv,-27.33055291,153.0501792
Grovely_EGX_20202021.csv,-27.43673371,153.1250732
Gympie North_EGX_20202021.csv,-27.52942436,152.4071281
Gympie South_EGX_20202021.csv,-27.6209498,152.8781333
Gympie_EGX_20202021.csv,-26.10003632,152.7455393
Hamilton Lands_EGX_20202021.csv,0,0
Hamilton_EGX_20202021.csv,-27.41157987,152.9612235
Heathwood_EGX_20202021.csv,-26.18148888,152.650149
Helidon_EGX_20202021.csv,-26.22044528,152.696147
Hemmant_EGX_20202021.csv,-26.1963859,152.6816566
Hendra_EGX_20202021.csv,-27.4346946,153.0848473
Holland Park East_EGX_20202021.csv,-27.4393212,153.0628461
Holland Park_EGX_20202021.csv,-27.64248735,152.9800147
Hollywell_EGX_20202021.csv,-27.54655153,152.128552
Hope Island_EGX_20202021.csv,-27.45190117,153.12668
Ibis_EGX_20202021.csv,-27.42020611,153.0644466
Imbil_EGX_20202021.csv,-27.5231379,153.0774941
Inala_EGX_20202021.csv,-27.5154759,153.056109
Indooroopilly_EGX_20202021.csv,-27.90615243,153.3883944
Innisplain_EGX_20202021.csv,-27.87920396,153.3603529
Ipswich South_EGX_20202021.csv,-27.61587594,153.4389413
Jimboomba_EGX_20202021.csv,-26.46417346,152.6549139
Jindalee_EGX_20202021.csv,-27.5957495,152.9702451
Kalbar_EGX_20202021.csv,-27.49899848,152.9740185
Kallangur_EGX_20202021.csv,-28.1696003,152.9092251
Karrabin_EGX_20202021.csv,-27.63870002,152.7609059
Kawana_EGX_20202021.csv,-27.80911279,153.0444367
Kedron_EGX_20202021.csv,-27.53515951,152.9355386
Kelvin Grove_EGX_20202021.csv,-27.94214699,152.6483581
Kenilworth_EGX_20202021.csv,-27.25122472,152.9938612
Kenmore_EGX_20202021.csv,-27.59550267,152.6918211
Kilcoy_EGX_20202021.csv,-26.72029552,153.1290905
Kingston_EGX_20202021.csv,-27.41293675,153.0331719
Kirra_EGX_20202021.csv,-27.45428711,153.012317
Labrador_EGX_20202021.csv,-26.60372334,152.7482327
Laidley_EGX_20202021.csv,-27.50657857,152.937796
Landsborough_EGX_20202021.csv,-26.93771918,152.5815297
Lawnton_EGX_20202021.csv,-27.67678213,153.1207128
Lockrose_EGX_20202021.csv,-28.17370728,153.5302121
Logan Village_EGX_20202021.csv,-27.93879645,153.3990897
Loganholme_EGX_20202021.csv,-27.6488577,152.3890915
Loganlea_EGX_20202021.csv,-26.80803594,152.970084
Lota_EGX_20202021.csv,-27.28618045,152.9732453
Lowood_EGX_20202021.csv,-27.49963729,152.4523789
Lytton B_EGX_20202021.csv,-27.77002088,153.1093152
Lytton_EGX_20202021.csv,-27.67662655,153.1856858
Makerston St_EGX_20202021.csv,-27.66417123,153.1316754
Maleny_EGX_20202021.csv,-27.4664275,153.1769997
Mango Hill Bus 1_EGX_20202021.csv,-27.45830947,152.5891146
Mango Hill Bus 2_EGX_20202021.csv,-27.43439178,153.1425171
Marburg_EGX_20202021.csv,-27.41637214,153.1543868
McLachlan St_EGX_20202021.csv,-27.46739492,153.0182841
Meeandah_EGX_20202021.csv,-26.76178256,152.8558235
Merrimac_EGX_20202021.csv,0,0
Miami_EGX_20202021.csv,-27.23886545,153.0270427
Milton_EGX_20202021.csv,-27.56549668,152.5937604
Moggill_EGX_20202021.csv,-27.45840086,153.0357977
Molendinar_EGX_20202021.csv,-27.43052273,153.1121385
Mooloolaba_EGX_20202021.csv,-28.03519126,153.4073434
Moorooka_EGX_20202021.csv,-28.06354282,153.4358864
Morayfield North_EGX_20202021.csv,-27.46667076,153.0089474
Morayfield_EGX_20202021.csv,-27.53842339,152.8972092
Mt Cotton_EGX_20202021.csv,-27.97853558,153.3607886
Mt Crosby West_EGX_20202021.csv,-26.70893796,153.0689736
Mt Gravatt_EGX_20202021.csv,-27.52682507,153.0224506
Mt Sylvia_EGX_20202021.csv,-27.09786419,152.9518827
Mt Tamborine Bus 1_EGX_20202021.csv,-27.1342249,152.9594604
Mt Tamborine Bus 2_EGX_20202021.csv,-27.61977232,153.2347819
Mudgeeraba West Pkg_EGX_20202021.csv,-27.53728178,152.7936233
Murarrie_EGX_20202021.csv,-27.54329799,153.0810852
Murrumba_EGX_20202021.csv,-27.72119761,152.2196118
Myrtletown_EGX_20202021.csv,-27.9029542,153.1127635
Nambour_EGX_20202021.csv,0,0
Narangba_EGX_20202021.csv,-28.08307685,153.3525601
Nerang_EGX_20202021.csv,-27.46038665,153.1052518
Newmarket_EGX_20202021.csv,-27.23746768,152.4985924
Newstead_EGX_20202021.csv,-27.40273939,153.1303293
Ningi_EGX_20202021.csv,-26.61570712,152.9609089
Noosaville_EGX_20202021.csv,-27.20405198,152.9856476
North Maclean_EGX_20202021.csv,-28.00731456,153.3386909
North Springwood_EGX_20202021.csv,-27.43582685,153.0136521
Nth Ipswich_EGX_20202021.csv,-27.45060894,153.0478094
Nth Pine Dam_EGX_20202021.csv,-27.07094109,153.0574077
Nudgee_EGX_20202021.csv,-26.40843722,153.0487627
Nundah_EGX_20202021.csv,-27.74454506,152.986113
Oxley_EGX_20202021.csv,-27.61547812,153.1211834
Palm Beach_EGX_20202021.csv,-27.59538807,152.7585621
Palmwoods Central_EGX_20202021.csv,-27.26597939,152.9418071
Parkwood_EGX_20202021.csv,-27.38973758,153.0830311
Peregian_EGX_20202021.csv,-27.39702838,153.0614048
Pimpama East_EGX_20202021.csv,0,0
Postmans Ridge_EGX_20202021.csv,-28.1321933,153.4729264
Queensport_EGX_20202021.csv,-26.6893257,152.9503828
Raby Bay_EGX_20202021.csv,-27.95805842,153.3833248
Redbank Plains_EGX_20202021.csv,-26.48280219,153.0599781
Redbank_EGX_20202021.csv,-27.81110021,153.3355666
Redcliffe_EGX_20202021.csv,-27.53322928,152.0663258
Redland Bay_EGX_20202021.csv,-27.45704515,153.0877014
Robina_EGX_20202021.csv,-27.52279701,153.2578625
Rocklea_EGX_20202021.csv,0,0
Roderick St_EGX_20202021.csv,-27.59821259,152.8720634
Rosewood_EGX_20202021.csv,-27.23020386,153.1077688
Runcorn_EGX_20202021.csv,-27.61663275,153.2910386
Russell Island_EGX_20202021.csv,-28.06962016,153.3765351
Salisbury_EGX_20202021.csv,-27.54325127,153.019985
Samford_EGX_20202021.csv,-27.6183427,152.7616738
Sandgate_EGX_20202021.csv,-27.67016519,152.5951706
Scarborough_EGX_20202021.csv,-27.59503172,153.0749326
Scrub Road_EGX_20202021.csv,-27.66593168,153.3847723
Sherwood_EGX_20202021.csv,-27.54552662,153.0323199
Somerset Dam_EGX_20202021.csv,-27.37802689,152.8749359
Southport_EGX_20202021.csv,-27.33055291,153.0501792
Spring Creek_EGX_20202021.csv,-27.21453791,153.104023
Springfield Central_EGX_20202021.csv,-27.50751963,153.1154979
Springfield_EGX_20202021.csv,-27.52968595,152.9806516
St Lucia_EGX_20202021.csv,-27.11532845,152.5539456
Stafford_EGX_20202021.csv,-27.97319751,153.4098591
Stapylton_EGX_20202021.csv,-27.48097277,152.3218785
Stradbroke Is_EGX_20202021.csv,-27.67270768,152.8967358
Strathpine_EGX_20202021.csv,-27.68704919,152.9078115
Sumner_EGX_20202021.csv,-27.49942234,153.0114772
Sunnybank_EGX_20202021.csv,-27.39894424,153.0094798
Surfers Paradise_EGX_20202021.csv,-27.74938417,153.2544139
Tamborine Village_EGX_20202021.csv,-27.51856394,153.4891438
Tanah Merah_EGX_20202021.csv,-27.31391233,152.9897199
Tarampa_EGX_20202021.csv,-27.55764256,152.9452012
Taringa_EGX_20202021.csv,-27.56506556,153.0551637
Tennyson_EGX_20202021.csv,-27.99784514,153.4270704
Tenthill_EGX_20202021.csv,-27.90294152,153.1127048
Tewantin_EGX_20202021.csv,-27.65829516,153.1661279
The Gap_EGX_20202021.csv,-27.47921729,152.5489918
Tin Can Bay_EGX_20202021.csv,-27.49924634,152.9900549
Tingalpa_EGX_20202021.csv,-27.52633194,153.0077338
Toogoolawah_EGX_20202021.csv,-27.63519056,152.2279277
Toorbul Point_EGX_20202021.csv,-26.40837269,153.0487956
Toowong_EGX_20202021.csv,-27.44783394,152.9418461
Upper Mt Gravatt_EGX_20202021.csv,-25.94379095,152.9801698
Varsity Lakes_EGX_20202021.csv,-27.47462303,153.1306
Victoria Park_EGX_20202021.csv,-27.06295682,152.3906917
Victoria Point_EGX_20202021.csv,-27.06924315,153.1313467
Wacol South_EGX_20202021.csv,-27.4810075,152.9841265
Wacol_EGX_20202021.csv,0,0
Wamuran_EGX_20202021.csv,-28.07970622,153.4095572
Wellington Rd_EGX_20202021.csv,-27.45177293,153.028125
West End_EGX_20202021.csv,-27.58758755,153.2826487
West Maroochydore_EGX_20202021.csv,-27.60464701,152.9336302
Whinstanes_EGX_20202021.csv,-27.59089255,152.931605
Whiteside_EGX_20202021.csv,-27.03528451,152.8555747
Wivenhoe_EGX_20202021.csv,-27.48493035,153.0406587
Woodford_EGX_20202021.csv,-27.47562511,153.0127315
Woodridge_EGX_20202021.csv,-26.66393605,153.0502415
Wynnum_EGX_20202021.csv,-27.42876958,153.0900586
Yamanto_EGX_20202021.csv,-27.22617872,152.8997664
Yandina_EGX_20202021.csv,-27.40982786,152.6303524
Yatala_EGX_20202021.csv,-26.97074145,152.7888923
Zillmere_EGX_20202021.csv,-27.63288057,153.1180383
Acacia Ridge_EGX_20202021.csv,-27.44104468,153.1589911
Albany Creek_EGX_20202021.csv,-27.65783333,152.7454304
Alexandra Headland_EGX_20202021.csv,-26.55524324,152.9570803
Algester_EGX_20202021.csv,-27.76072274,153.2285685
Amamoor_EGX_20202021.csv,-27.35863357,153.0305542
